[
  {
    "name": "Water Fountain",
    "type": "water",
    "lat": 32.7157,
    "lon": -117.1611,
    "notes": "Open 24/7"
  },
  {
    "name": "Shelter A",
    "type": "sleep",
    "lat": 32.7167,
    "lon": -117.162,
    "notes": "Limited capacity"
  },
  {
    "name": "karhtik",
    "type": "water",
    "notes": "",
    "lat": 32.719771,
    "lon": -117.157517,
    "created_at": "2025-11-10T05:21:42.079899Z"
  },
  {
    "name": "darren watkins",
    "type": "water",
    "notes": "faucet here gives some good water ngl",
    "lat": 32.889753,
    "lon": -117.240815,
    "created_at": "2025-11-10T05:25:52.858315Z"
  },
  {
    "name": "darren watkins",
    "type": "water",
    "notes": "",
    "lat": 32.738195,
    "lon": -117.155628,
    "created_at": "2025-11-10T05:32:37.933707Z",
    "clicks_remaining": 0,
    "id": "4",
    "expired": true,
    "expired_at": "2025-11-10T05:37:59.792634Z"
  },
  {
    "name": "asdfasdf",
    "type": "food",
    "notes": "",
    "lat": 32.888153,
    "lon": -117.242188,
    "created_at": "2025-11-13T00:22:36.180044Z",
    "clicks_remaining": 10,
    "id": "6"
  },
  {
    "name": "asfasdf",
    "type": "shelter",
    "notes": "asdf",
    "lat": 32.885953,
    "lon": -117.242274,
    "created_at": "2025-11-13T00:24:58.720268Z",
    "clicks_remaining": 10,
    "id": "7"
  }
]